{
  "cities": [
    {
      "cityName": "Lisbon",
      "country": "Portugal",
      "emoji": "ðŸ‡µðŸ‡¹",
      "date": "2027-10-31T15:59:59.138Z",
      "notes": "My favorite city so far!",
      "position": {
        "lat": 38.727881642324164,
        "lng": -9.140900099907554
      },
      "id": "73930385"
    },
    {
      "cityName": "Madrid",
      "country": "Spain",
      "emoji": "ðŸ‡ªðŸ‡¸",
      "date": "2027-07-15T08:22:53.976Z",
      "notes": "",
      "position": {
        "lat": 40.46635901755316,
        "lng": -3.7133789062500004
      },
      "id": "17806751"
    },
    {
      "cityName": "Berlin",
      "country": "Germany",
      "emoji": "ðŸ‡©ðŸ‡ª",
      "date": "2027-02-12T09:24:11.863Z",
      "notes": "Amazing ðŸ˜ƒ",
      "position": {
        "lat": 52.53586782505711,
        "lng": 13.376933665713324
      },
      "id": "98443197"
    },
    {
      "cityName": "Paris",
      "country": "France",
      "emoji": "ðŸ‡«ðŸ‡·",
      "date": "2026-05-20T12:00:00.000Z",
      "notes": "Eiffel Tower is a must-see!",
      "position": {
        "lat": 48.8566,
        "lng": 2.3522
      },
      "id": "55223344"
    },
    {
      "cityName": "Rome",
      "country": "Italy",
      "emoji": "ðŸ‡®ðŸ‡¹",
      "date": "2026-06-15T10:30:00.000Z",
      "notes": "Best pasta ever.",
      "position": {
        "lat": 41.9028,
        "lng": 12.4964
      },
      "id": "11223344"
    },
    {
      "cityName": "Kyiv",
      "country": "Ukraine",
      "emoji": "ðŸ‡ºðŸ‡¦",
      "date": "2026-08-24T09:00:00.000Z",
      "notes": "The heart of Ukraine ðŸ’™ðŸ’›",
      "position": {
        "lat": 50.4501,
        "lng": 30.5234
      },
      "id": "99887766"
    },
    {
      "id": "6fd3",
      "cityName": "Becerrea",
      "country": "Spain",
      "emoji": "ðŸ‡ªðŸ‡¸",
      "date": "2026-02-04T12:30:52.058Z",
      "notes": "123",
      "position": {
        "lat": "42.80848544855123",
        "lng": "-7.1887415014410765"
      }
    }
  ]
}